[{"affiliate":"yes","name":"One Fish, Two Fish","address":"2421 Pennsylvania Ave NW","address2":"","storeID":"2179683","chainID":null,"totalDealsInThisStore":"3","homepage":"","phone":"202.822.0977","state":"DC","city":"Washington","ZIP":"20037","URL":"http:\/\/www.8coupons.com\/discounts\/one-fish-two-fish-washington-20037","storeURL":"http:\/\/www.8coupons.com\/discounts\/one-fish-two-fish-washington-20037","dealSource":"wusa9.com","user":"DataSphere","userID":"309539","ID":"8077973","dealTitle":"10% Off Your Total Bill!","disclaimer":"Bring this coupon in and get 10% off your bill. Must present this coupon. Not valid with any other offer or prior service.","dealinfo":"","expirationDate":"2012-09-26","postDate":"2012-04-21 04:43:52","showImage":"http:\/\/images.secondspace.com\/p\/8Coupons\/20\/45\/85\/46\/7\/12533595_200x200v2_125_125.gif","showLogo":"http:\/\/www.8coupons.com\/partners\/logo\/small\/datasphere.jpg","up":null,"down":null,"DealTypeID":"1","categoryID":"2","subcategoryID":"50","lat":"38.9035","lon":"-77.0523","distance":"0.177427111781014","dealOriginalPrice":null,"dealPrice":null,"dealSavings":"","dealDiscountPercent":null},
{"affiliate":"yes","name":"One Fish, Two Fish","address":"2421 Pennsylvania Ave NW","address2":"","storeID":"2179683","chainID":null,"totalDealsInThisStore":"1","homepage":"","phone":"202.822.0977","state":"DC","city":"Washington","ZIP":"20037","URL":"http:\/\/www.8coupons.com\/apiout\/showdeal\/deal\/7857717\/1698021\/aff","storeURL":"http:\/\/www.8coupons.com\/discounts\/one-fish-two-fish-washington-20037","dealSource":"mobilespinach.com","user":"Mobile Spinach","userID":"42381","ID":"7857717","dealTitle":"One Fish, Two Fish: $3 for $6 on any purchase ","disclaimer":"","dealinfo":"Rule of Thumb about seafood: It must be fresh! This seafood delight packs in the goods right from the net of Poseidon as well as offering delicacies from the &lsquo;turf&rsquo; instead of the surf. Classic seafood dishes, pastas, a huge variety of appetizers and a friendly staff make this eatery an incredible dining experience.This voucher does not expire. Your voucher is always redeemable for the amount you paid, less any value that you have already received. Gratuity and sales tax not included. Sales tax is paid off of the face value of the voucher. Not to be combined with other deals or offers. Subject to the Mobile Spinach General Terms.","expirationDate":"2012-09-05","postDate":"2012-04-20 03:01:12","showImage":"http:\/\/www.mobilespinach.com\/ads\/deals\/51170\/images?dimensions=275x180&appid=27","showLogo":"http:\/\/www.8coupons.com\/partners\/logo\/small\/mobilespinach.png","up":null,"down":null,"DealTypeID":"1","categoryID":"2","subcategoryID":"50","lat":"38.9035","lon":"-77.0523","distance":"0.177427111781014","dealOriginalPrice":null,"dealPrice":null,"dealSavings":"","dealDiscountPercent":null},
{"affiliate":"yes","name":"One Fish, Two Fish","address":"2421 Pennsylvania Ave NW","address2":"","storeID":"2179683","chainID":null,"totalDealsInThisStore":"1","homepage":"","phone":"202.822.0977","state":"DC","city":"Washington","ZIP":"20037","URL":"http:\/\/www.8coupons.com\/apiout\/showdeal\/deal\/8723145\/1698021\/aff","storeURL":"http:\/\/www.8coupons.com\/discounts\/one-fish-two-fish-washington-20037","dealSource":"mobilespinach.com","user":"Mobile Spinach","userID":"42381","ID":"8723145","dealTitle":"One Fish, Two Fish: $6 for $11 at One Fish, Two Fish ","disclaimer":"","dealinfo":"Rule of Thumb about seafood: It must be fresh! This seafood delight packs in the goods right from the net of Poseidon as well as offering delicacies from the ocean floor instead of the surf. Classic seafood dishes, pastas, a huge variety of appetizers and a friendly staff make this eatery an incredible dining experience.1 voucher per table. Only good for dine in. This voucher does not expire. Your voucher is always redeemable for the amount you paid, less any value that you have already received. Gratuity and sales tax not included. Sales tax is paid off of the face value of the voucher. Not to be combined with other deals or offers. Subject to the Mobile Spinach General Terms.","expirationDate":"2012-09-27","postDate":"2012-07-25 04:22:21","showImage":"http:\/\/www.mobilespinach.com\/ads\/deals\/67911\/images?dimensions=275x180&appid=27","showLogo":"http:\/\/www.8coupons.com\/partners\/logo\/small\/mobilespinach.png","up":null,"down":null,"DealTypeID":"1","categoryID":"2","subcategoryID":"50","lat":"38.9035","lon":"-77.0523","distance":"0.177427111781014","dealOriginalPrice":null,"dealPrice":null,"dealSavings":"","dealDiscountPercent":null},
{"affiliate":"yes","name":"Black Rooster Pub","address":"1919 L St NW","address2":"","storeID":"203744","chainID":null,"totalDealsInThisStore":"1","homepage":null,"phone":"202.659.4431","state":"DC","city":"Washington","ZIP":"20036","URL":"http:\/\/www.8coupons.com\/apiout\/showdeal\/deal\/5880501\/1698021\/aff","storeURL":"http:\/\/www.8coupons.com\/discounts\/black-rooster-pub-washington-20036","dealSource":"restaurant.com","user":"Restaurant.com","userID":"54727","ID":"5880501","dealTitle":"$25 Gift Certificate for $10.00","disclaimer":"Minimum purchase of $35. 20% Gratuity added prior to discount. Valid for Dine In ONLY. Excludes: Other Offers\/Promotions. Present prior to ordering.","dealinfo":"Known as the \"CHEERS\" of Washington, DC, you'll find everyone from lawyers to construction workers enjoying their favorite food and libations at Black Rooster Pub.","expirationDate":"2012-08-30","postDate":"2012-08-27 23:11:25","showImage":null,"showLogo":"http:\/\/www.8coupons.com\/partners\/logo\/small\/restaurant.png","up":"1","down":"0","DealTypeID":"1","categoryID":"2","subcategoryID":"48","lat":"38.9038","lon":"-77.0443","distance":"0.367760718002441","dealOriginalPrice":"25","dealPrice":"10","dealSavings":"15","dealDiscountPercent":"60"},
{"affiliate":"yes","name":"Black Rooster Pub","address":"1919 L St NW","address2":"","storeID":"203744","chainID":null,"totalDealsInThisStore":"1","homepage":null,"phone":"202.659.4431","state":"DC","city":"Washington","ZIP":"20036","URL":"http:\/\/www.8coupons.com\/apiout\/showdeal\/deal\/5880507\/1698021\/aff","storeURL":"http:\/\/www.8coupons.com\/discounts\/black-rooster-pub-washington-20036","dealSource":"restaurant.com","user":"Restaurant.com","userID":"54727","ID":"5880507","dealTitle":"$100 Gift Certificate for $40.00","disclaimer":"Minimum purchase of $200. 20% Gratuity added prior to discount. Valid for Dine In ONLY. Excludes: Other Offers\/Promotions. Present prior to ordering.","dealinfo":"Known as the \"CHEERS\" of Washington, DC, you'll find everyone from lawyers to construction workers enjoying their favorite food and libations at Black Rooster Pub.","expirationDate":"2012-08-30","postDate":"2012-08-27 14:39:46","showImage":null,"showLogo":"http:\/\/www.8coupons.com\/partners\/logo\/small\/restaurant.png","up":"1","down":"0","DealTypeID":"1","categoryID":"2","subcategoryID":"48","lat":"38.9038","lon":"-77.0443","distance":"0.367760718002441","dealOriginalPrice":"100","dealPrice":"40","dealSavings":"60","dealDiscountPercent":"60"},
{"affiliate":"yes","name":"Black Rooster Pub","address":"1919 L St NW","address2":"","storeID":"203744","chainID":null,"totalDealsInThisStore":"1","homepage":null,"phone":"202.659.4431","state":"DC","city":"Washington","ZIP":"20036","URL":"http:\/\/www.8coupons.com\/apiout\/showdeal\/deal\/5880505\/1698021\/aff","storeURL":"http:\/\/www.8coupons.com\/discounts\/black-rooster-pub-washington-20036","dealSource":"restaurant.com","user":"Restaurant.com","userID":"54727","ID":"5880505","dealTitle":"$75 Gift Certificate for $30.00","disclaimer":"Minimum purchase of $150. 20% Gratuity added prior to discount. Valid for Dine In ONLY. Excludes: Other Offers\/Promotions. Present prior to ordering.","dealinfo":"Known as the \"CHEERS\" of Washington, DC, you'll find everyone from lawyers to construction workers enjoying their favorite food and libations at Black Rooster Pub.","expirationDate":"2012-08-31","postDate":"2012-08-28 06:21:05","showImage":null,"showLogo":"http:\/\/www.8coupons.com\/partners\/logo\/small\/restaurant.png","up":"1","down":"0","DealTypeID":"1","categoryID":"2","subcategoryID":"48","lat":"38.9038","lon":"-77.0443","distance":"0.367760718002441","dealOriginalPrice":"75","dealPrice":"30","dealSavings":"45","dealDiscountPercent":"60"},
{"affiliate":"yes","name":"Black Rooster Pub","address":"1919 L St NW","address2":"","storeID":"203744","chainID":null,"totalDealsInThisStore":"1","homepage":null,"phone":"202.659.4431","state":"DC","city":"Washington","ZIP":"20036","URL":"http:\/\/www.8coupons.com\/apiout\/showdeal\/deal\/5880503\/1698021\/aff","storeURL":"http:\/\/www.8coupons.com\/discounts\/black-rooster-pub-washington-20036","dealSource":"restaurant.com","user":"Restaurant.com","userID":"54727","ID":"5880503","dealTitle":"$50 Gift Certificate for $20.00","disclaimer":"Minimum purchase of $100. 20% Gratuity added prior to discount. Valid for Dine In ONLY. Excludes: Other Offers\/Promotions. Present prior to ordering.","dealinfo":"Known as the \"CHEERS\" of Washington, DC, you'll find everyone from lawyers to construction workers enjoying their favorite food and libations at Black Rooster Pub.","expirationDate":"2012-08-31","postDate":"2012-08-28 06:21:05","showImage":null,"showLogo":"http:\/\/www.8coupons.com\/partners\/logo\/small\/restaurant.png","up":"1","down":"0","DealTypeID":"1","categoryID":"2","subcategoryID":"48","lat":"38.9038","lon":"-77.0443","distance":"0.367760718002441","dealOriginalPrice":"50","dealPrice":"20","dealSavings":"30","dealDiscountPercent":"60"},
{"affiliate":"yes","name":"Black Rooster Pub","address":"1919 L St NW","address2":"","storeID":"203744","chainID":null,"totalDealsInThisStore":"1","homepage":null,"phone":"202.659.4431","state":"DC","city":"Washington","ZIP":"20036","URL":"http:\/\/www.8coupons.com\/apiout\/showdeal\/deal\/4824049\/1698021\/aff","storeURL":"http:\/\/www.8coupons.com\/discounts\/black-rooster-pub-washington-20036","dealSource":"restaurant.com","user":"Restaurant.com","userID":"54727","ID":"4824049","dealTitle":"$10 Gift Certificate for $4.00","disclaimer":"Minimum purchase of $20. 20% Gratuity added prior to discount. Valid for Dine In ONLY. Excludes: Other Offers\/Promotions. Present prior to ordering.","dealinfo":"Known as the \"CHEERS\" of Washington, DC, you'll find everyone from lawyers to construction workers enjoying their favorite food and libations at Black Rooster Pub.","expirationDate":"2012-08-30","postDate":"2012-08-27 14:39:45","showImage":null,"showLogo":"http:\/\/www.8coupons.com\/partners\/logo\/small\/restaurant.png","up":"1","down":"0","DealTypeID":"1","categoryID":"2","subcategoryID":"48","lat":"38.9038","lon":"-77.0443","distance":"0.367760718002441","dealOriginalPrice":null,"dealPrice":null,"dealSavings":"","dealDiscountPercent":null},
{"affiliate":"yes","name":"Black Rooster Pub","address":"1919 L St NW","address2":"","storeID":"203744","chainID":null,"totalDealsInThisStore":"1","homepage":null,"phone":"202.659.4431","state":"DC","city":"Washington","ZIP":"20036","URL":"http:\/\/www.8coupons.com\/apiout\/showdeal\/deal\/8483531\/1698021\/aff","storeURL":"http:\/\/www.8coupons.com\/discounts\/black-rooster-pub-washington-20036","dealSource":"restaurant.com","user":"Restaurant.com","userID":"54727","ID":"8483531","dealTitle":"$15 Gift Certificate for $6.00","disclaimer":"Minimum purchase of $22.50. 20% Gratuity added prior to discount. Valid for Dine In ONLY. Excludes: Other Offers\/Promotions. Present prior to ordering.","dealinfo":"Known as the \"CHEERS\" of Washington, DC, you'll find everyone from lawyers to construction workers enjoying their favorite food and libations at Black Rooster Pub.","expirationDate":"2012-08-31","postDate":"2012-08-28 06:21:05","showImage":null,"showLogo":"http:\/\/www.8coupons.com\/partners\/logo\/small\/restaurant.png","up":null,"down":null,"DealTypeID":"1","categoryID":"2","subcategoryID":"48","lat":"38.9038","lon":"-77.0443","distance":"0.367760718002441","dealOriginalPrice":"15","dealPrice":"6","dealSavings":"9","dealDiscountPercent":"60"},
{"affiliate":"yes","name":"19th","address":"1900 Eye Street, NW","address2":"","storeID":"1995853","chainID":null,"totalDealsInThisStore":"1","homepage":"","phone":"202.331.5800","state":"DC","city":"Washington","ZIP":"20006","URL":"http:\/\/www.8coupons.com\/apiout\/showdeal\/deal\/5864299\/1698021\/aff","storeURL":"http:\/\/www.8coupons.com\/discounts\/19th-bar-washington-20470","dealSource":"restaurant.com","user":"Restaurant.com","userID":"54727","ID":"5864299","dealTitle":"$75 Gift Certificate for $30.00","disclaimer":"Minimum purchase of $150. 20% Gratuity added prior to discount. Excludes: Other Offers\/Promotions. Present prior to ordering. Valid for dine-in and catered events only.","dealinfo":"DC's Longest & Happiest Hour from 11am to 7pm, 7 days a week.","expirationDate":"2012-08-30","postDate":"2012-08-27 23:17:36","showImage":null,"showLogo":"http:\/\/www.8coupons.com\/partners\/logo\/small\/restaurant.png","up":"1","down":"0","DealTypeID":"1","categoryID":"2","subcategoryID":"48","lat":"38.9013","lon":"-77.0435","distance":"0.370953831499495","dealOriginalPrice":"75","dealPrice":"30","dealSavings":"45","dealDiscountPercent":"60"},
{"affiliate":"yes","name":"19th","address":"1900 Eye Street, NW","address2":"","storeID":"1995853","chainID":null,"totalDealsInThisStore":"1","homepage":"","phone":"202.331.5800","state":"DC","city":"Washington","ZIP":"20006","URL":"http:\/\/www.8coupons.com\/apiout\/showdeal\/deal\/5864297\/1698021\/aff","storeURL":"http:\/\/www.8coupons.com\/discounts\/19th-bar-washington-20470","dealSource":"restaurant.com","user":"Restaurant.com","userID":"54727","ID":"5864297","dealTitle":"$50 Gift Certificate for $20.00","disclaimer":"Minimum purchase of $100. 20% Gratuity added prior to discount. Excludes: Other Offers\/Promotions. Present prior to ordering. Valid for dine-in and catered events only.","dealinfo":"DC's Longest & Happiest Hour from 11am to 7pm, 7 days a week.","expirationDate":"2012-08-29","postDate":"2012-08-26 15:03:56","showImage":null,"showLogo":"http:\/\/www.8coupons.com\/partners\/logo\/small\/restaurant.png","up":"1","down":"0","DealTypeID":"1","categoryID":"2","subcategoryID":"48","lat":"38.9013","lon":"-77.0435","distance":"0.370953831499495","dealOriginalPrice":"50","dealPrice":"20","dealSavings":"30","dealDiscountPercent":"60"},
{"affiliate":"yes","name":"19th","address":"1900 Eye Street, NW","address2":"","storeID":"1995853","chainID":null,"totalDealsInThisStore":"1","homepage":"","phone":"202.331.5800","state":"DC","city":"Washington","ZIP":"20006","URL":"http:\/\/www.8coupons.com\/apiout\/showdeal\/deal\/5864301\/1698021\/aff","storeURL":"http:\/\/www.8coupons.com\/discounts\/19th-bar-washington-20470","dealSource":"restaurant.com","user":"Restaurant.com","userID":"54727","ID":"5864301","dealTitle":"$100 Gift Certificate for $40.00","disclaimer":"Minimum purchase of $200. 20% Gratuity added prior to discount. Excludes: Other Offers\/Promotions. Present prior to ordering. Valid for dine-in and catered events only.","dealinfo":"DC's Longest & Happiest Hour from 11am to 7pm, 7 days a week.","expirationDate":"2012-08-31","postDate":"2012-08-28 06:26:45","showImage":null,"showLogo":"http:\/\/www.8coupons.com\/partners\/logo\/small\/restaurant.png","up":"1","down":"0","DealTypeID":"1","categoryID":"2","subcategoryID":"48","lat":"38.9013","lon":"-77.0435","distance":"0.370953831499495","dealOriginalPrice":"100","dealPrice":"40","dealSavings":"60","dealDiscountPercent":"60"},
{"affiliate":"yes","name":"19th","address":"1900 Eye Street, NW","address2":"","storeID":"1995853","chainID":null,"totalDealsInThisStore":"1","homepage":"","phone":"202.331.5800","state":"DC","city":"Washington","ZIP":"20006","URL":"http:\/\/www.8coupons.com\/apiout\/showdeal\/deal\/5864295\/1698021\/aff","storeURL":"http:\/\/www.8coupons.com\/discounts\/19th-bar-washington-20470","dealSource":"restaurant.com","user":"Restaurant.com","userID":"54727","ID":"5864295","dealTitle":"$25 Gift Certificate for $10.00","disclaimer":"Minimum purchase of $35. Excludes Fri. 20% Gratuity added prior to discount. Valid for Dine In ONLY. Excludes: Other Offers\/Promotions. Present prior to ordering.","dealinfo":"DC's Longest & Happiest Hour from 11am to 7pm, 7 days a week.","expirationDate":"2012-08-28","postDate":"2012-08-25 06:32:05","showImage":null,"showLogo":"http:\/\/www.8coupons.com\/partners\/logo\/small\/restaurant.png","up":"1","down":"0","DealTypeID":"1","categoryID":"2","subcategoryID":"48","lat":"38.9013","lon":"-77.0435","distance":"0.370953831499495","dealOriginalPrice":"25","dealPrice":"10","dealSavings":"15","dealDiscountPercent":"60"},
{"affiliate":"yes","name":"The Mighty Pint","address":"1831 M Street NW","address2":"","storeID":"1986867","chainID":null,"totalDealsInThisStore":"1","homepage":"http:\/\/www.themightypint.com\/","phone":"202.466.3010","state":"DC","city":"Washington","ZIP":"20036","URL":"http:\/\/www.8coupons.com\/apiout\/showdeal\/deal\/5896905\/1698021\/aff","storeURL":"http:\/\/www.8coupons.com\/discounts\/the-mighty-pint-washington-20036","dealSource":"restaurant.com","user":"Restaurant.com","userID":"54727","ID":"5896905","dealTitle":"$25 Gift Certificate for $10.00","disclaimer":"Minimum purchase of $35. 18% Gratuity added prior to discount. Valid for Dinner, Dine In ONLY. Excludes: Other Offers\/Promotions. Not valid with Happy hour or other discount.","dealinfo":"One Pint Fits All.","expirationDate":"2012-08-31","postDate":"2012-08-28 06:27:48","showImage":null,"showLogo":"http:\/\/www.8coupons.com\/partners\/logo\/small\/restaurant.png","up":"1","down":"0","DealTypeID":"1","categoryID":"2","subcategoryID":"48","lat":"38.9059","lon":"-77.043","distance":"0.504983098393611","dealOriginalPrice":"25","dealPrice":"10","dealSavings":"15","dealDiscountPercent":"60"},
{"affiliate":"yes","name":"The Mighty Pint","address":"1831 M Street NW","address2":"","storeID":"1986867","chainID":null,"totalDealsInThisStore":"1","homepage":"http:\/\/www.themightypint.com\/","phone":"202.466.3010","state":"DC","city":"Washington","ZIP":"20036","URL":"http:\/\/www.8coupons.com\/apiout\/showdeal\/deal\/5896909\/1698021\/aff","storeURL":"http:\/\/www.8coupons.com\/discounts\/the-mighty-pint-washington-20036","dealSource":"restaurant.com","user":"Restaurant.com","userID":"54727","ID":"5896909","dealTitle":"$75 Gift Certificate for $30.00","disclaimer":"Minimum purchase of $150. 18% Gratuity added prior to discount. Valid for Dine In ONLY. Excludes: Other Offers\/Promotions. Present prior to ordering. Not valid with Happy hour.","dealinfo":"One Pint Fits All.","expirationDate":"2012-08-31","postDate":"2012-08-28 06:27:48","showImage":null,"showLogo":"http:\/\/www.8coupons.com\/partners\/logo\/small\/restaurant.png","up":"1","down":"0","DealTypeID":"1","categoryID":"2","subcategoryID":"48","lat":"38.9059","lon":"-77.043","distance":"0.504983098393611","dealOriginalPrice":"75","dealPrice":"30","dealSavings":"45","dealDiscountPercent":"60"},
{"affiliate":"yes","name":"Eurospa","address":"2029 K St NW","address2":"","storeID":"206444","chainID":null,"totalDealsInThisStore":"50","homepage":null,"phone":"202.293.7560","state":"DC","city":"Washington","ZIP":"20006","URL":"http:\/\/www.8coupons.com\/discounts\/eurospa-morgana-washington-20006","storeURL":"http:\/\/www.8coupons.com\/discounts\/eurospa-morgana-washington-20006","dealSource":"kgbdeals.com","user":"Deals of the Day","userID":"18381","ID":"8834065","dealTitle":"$25 for a Shellac or Gel manicure with paraffin wax and spa pedicure at Eurospa ($99 value)","disclaimer":"Valid until November 20, 2012 May purchase two vouchers per person&nbsp; May purchase additional vouchers as gifts; same conditions apply Must make an appointment; no walk-ins Subject to availability Must give 24-hour cancellation notice or voucher will be forfeited Cannot combine with other offers Gratuity not included Tax is included No cash value, credit, or change given $5 charge for Shellac removal&nbsp; Pedicure is a classic polish and not shellac or gel&nbsp;  Please see  kgbdeals.com  for additional terms and conditions.","dealinfo":"Hands and hair go together like peas and carrots. Make sure both look good at&nbsp; Eurospa &nbsp;with a&nbsp;&nbsp;no-chip Shellac or Gel mani with paraffin wax and spa pedicure for $25,&nbsp;haircut, blow dry and conditioning for $19, full highlights or one-process color for $39 or men's cut for $8.&nbsp;Nails are buffed, cleaned and polished to&nbsp;glistening&nbsp;perfection with a long-lasting no-chip polish. Expert stylists will transform tired locks into sensational tresses.&nbsp;The atmosphere is relaxing and the service professional and friendly. Save big on good looking hands and hair with today's kgbdeals. &nbsp; &nbsp; Reviews:   Eurospa  has 15 reviews on Citysearch:  &ldquo;EuroSpa is hands-down the best salon I've ever been too. The staff is incredibly professional and friendly-which is rare in this city&hellip;&rdquo; &ndash;CaseyC","expirationDate":"2012-08-29","postDate":"2012-08-28 02:14:54","showImage":"http:\/\/static-www.kgbdeals.com\/deals\/US\/117301\/117301_s625x398.jpg","showLogo":"http:\/\/www.8coupons.com\/partners\/logo\/small\/kgbdeals.gif","up":null,"down":null,"DealTypeID":"1","categoryID":"3","subcategoryID":"61","lat":"38.9028","lon":"-77.0462","distance":"0.245555352652722","dealOriginalPrice":"99","dealPrice":"25","dealSavings":"74","dealDiscountPercent":"74"},
{"affiliate":"yes","name":"Eurospa","address":"2029 K St NW","address2":"","storeID":"206444","chainID":null,"totalDealsInThisStore":"50","homepage":null,"phone":"202.293.7560","state":"DC","city":"Washington","ZIP":"20006","URL":"http:\/\/www.8coupons.com\/apiout\/showdeal\/deal\/8834067\/1698021\/aff","storeURL":"http:\/\/www.8coupons.com\/discounts\/eurospa-morgana-washington-20006","dealSource":"kgbdeals.com","user":"Deals of the Day","userID":"18381","ID":"8834067","dealTitle":"$19 for a haircut, blow dry and conditioning at Eurospa ($55 value)","disclaimer":"Valid until November 20, 2012 May purchase two vouchers per person&nbsp; May purchase additional vouchers as gifts; same conditions apply Must make an appointment; no walk-ins Subject to availability Must give 24-hour cancellation notice or voucher will be forfeited Cannot combine with other offers Gratuity not included Tax is included No cash value, credit, or change given  Please see  kgbdeals.com  for additional terms and conditions.","dealinfo":"Hands and hair go together like peas and carrots. Make sure both look good at&nbsp; Eurospa &nbsp;with a&nbsp;&nbsp;no-chip Shellac or Gel mani with paraffin wax and spa pedicure for $25,&nbsp;haircut, blow dry and conditioning for $19, full highlights or one-process color for $39 or men's cut for $8.&nbsp;Nails are buffed, cleaned and polished to&nbsp;glistening&nbsp;perfection with a long-lasting no-chip polish. Expert stylists will transform tired locks into sensational tresses.&nbsp;The atmosphere is relaxing and the service professional and friendly. Save big on good looking hands and hair with today's kgbdeals. &nbsp; &nbsp; Reviews:   Eurospa  has 15 reviews on Citysearch:  &ldquo;EuroSpa is hands-down the best salon I've ever been too. The staff is incredibly professional and friendly-which is rare in this city&hellip;&rdquo; &ndash;CaseyC","expirationDate":"2012-08-29","postDate":"2012-08-28 01:02:31","showImage":"http:\/\/static-www.kgbdeals.com\/deals\/US\/126119\/126119_s625x398.jpg","showLogo":"http:\/\/www.8coupons.com\/partners\/logo\/small\/kgbdeals.gif","up":null,"down":null,"DealTypeID":"1","categoryID":"3","subcategoryID":"61","lat":"38.9028","lon":"-77.0462","distance":"0.245555352652722","dealOriginalPrice":"55","dealPrice":"19","dealSavings":"36","dealDiscountPercent":"36"},
{"affiliate":"yes","name":"Eurospa","address":"2029 K St NW","address2":"","storeID":"206444","chainID":null,"totalDealsInThisStore":"50","homepage":null,"phone":"202.293.7560","state":"DC","city":"Washington","ZIP":"20006","URL":"http:\/\/www.8coupons.com\/apiout\/showdeal\/deal\/8834069\/1698021\/aff","storeURL":"http:\/\/www.8coupons.com\/discounts\/eurospa-morgana-washington-20006","dealSource":"kgbdeals.com","user":"Deals of the Day","userID":"18381","ID":"8834069","dealTitle":"$39 for full highlights or one-process color at Eurospa ($120 value)","disclaimer":"Valid until November 20, 2012 Valid for new highlights clients only May purchase two vouchers per person&nbsp; May purchase additional vouchers as gifts; same conditions apply Must make an appointment; no walk-ins Subject to availability Must give 24-hour cancellation notice or voucher will be forfeited Cannot combine with other offers Gratuity not included Tax is included No cash value, credit, or change given   Please see  kgbdeals.com  for additional terms and conditions.","dealinfo":"Hands and hair go together like peas and carrots. Make sure both look good at&nbsp; Eurospa &nbsp;with a&nbsp;&nbsp;no-chip Shellac or Gel mani with paraffin wax and spa pedicure for $25,&nbsp;haircut, blow dry and conditioning for $19, full highlights or one-process color for $39 or men's cut for $8.&nbsp;Nails are buffed, cleaned and polished to&nbsp;glistening&nbsp;perfection with a long-lasting no-chip polish. Expert stylists will transform tired locks into sensational tresses.&nbsp;The atmosphere is relaxing and the service professional and friendly. Save big on good looking hands and hair with today's kgbdeals. &nbsp; &nbsp; Reviews:   Eurospa  has 15 reviews on Citysearch:  &ldquo;EuroSpa is hands-down the best salon I've ever been too. The staff is incredibly professional and friendly-which is rare in this city&hellip;&rdquo; &ndash;CaseyC","expirationDate":"2012-08-29","postDate":"2012-08-28 02:14:54","showImage":"http:\/\/static-www.kgbdeals.com\/deals\/US\/126121\/126121_s625x398.jpg","showLogo":"http:\/\/www.8coupons.com\/partners\/logo\/small\/kgbdeals.gif","up":null,"down":null,"DealTypeID":"1","categoryID":"3","subcategoryID":"61","lat":"38.9028","lon":"-77.0462","distance":"0.245555352652722","dealOriginalPrice":"120","dealPrice":"39","dealSavings":"81","dealDiscountPercent":"81"},
{"affiliate":"yes","name":"Eurospa","address":"2029 K St NW","address2":"","storeID":"206444","chainID":null,"totalDealsInThisStore":"50","homepage":null,"phone":"202.293.7560","state":"DC","city":"Washington","ZIP":"20006","URL":"http:\/\/www.8coupons.com\/apiout\/showdeal\/deal\/8834071\/1698021\/aff","storeURL":"http:\/\/www.8coupons.com\/discounts\/eurospa-morgana-washington-20006","dealSource":"kgbdeals.com","user":"Deals of the Day","userID":"18381","ID":"8834071","dealTitle":"$8 for a men's haircut at Eurospa ($25 value)","disclaimer":"Valid until November 20, 2012 Valid for new haircut clients only&nbsp; May purchase two vouchers per person&nbsp; May purchase additional vouchers as gifts; same conditions apply Must make an appointment; no walk-ins Subject to availability Must give 24-hour cancellation notice or voucher will be forfeited Cannot combine with other offers Gratuity not included Tax is included No cash value, credit, or change given  Please see  kgbdeals.com  for additional terms and conditions.","dealinfo":"Hands and hair go together like peas and carrots. Make sure both look good at&nbsp; Eurospa &nbsp;with a&nbsp;&nbsp;no-chip Shellac or Gel mani with paraffin wax and spa pedicure for $25,&nbsp;haircut, blow dry and conditioning for $19, full highlights or one-process color for $39 or men's cut for $8.&nbsp;Nails are buffed, cleaned and polished to&nbsp;glistening&nbsp;perfection with a long-lasting no-chip polish. Expert stylists will transform tired locks into sensational tresses.&nbsp;The atmosphere is relaxing and the service professional and friendly. Save big on good looking hands and hair with today's kgbdeals. &nbsp; &nbsp; Reviews:   Eurospa  has 15 reviews on Citysearch:  &ldquo;EuroSpa is hands-down the best salon I've ever been too. The staff is incredibly professional and friendly-which is rare in this city&hellip;&rdquo; &ndash;CaseyC","expirationDate":"2012-08-29","postDate":"2012-08-28 02:14:54","showImage":"http:\/\/static-www.kgbdeals.com\/deals\/US\/126123\/126123_s625x398.jpg","showLogo":"http:\/\/www.8coupons.com\/partners\/logo\/small\/kgbdeals.gif","up":null,"down":null,"DealTypeID":"1","categoryID":"3","subcategoryID":"61","lat":"38.9028","lon":"-77.0462","distance":"0.245555352652722","dealOriginalPrice":"25","dealPrice":"8","dealSavings":"17","dealDiscountPercent":"17"},
{"affiliate":"yes","name":"Eye Street Massage Therapy","address":"1917 I St NW","address2":"400","storeID":"203285","chainID":null,"totalDealsInThisStore":"1","homepage":null,"phone":"202.463.0987","state":"DC","city":"Washington","ZIP":"20006","URL":"http:\/\/www.8coupons.com\/apiout\/showdeal\/deal\/8087293\/1698021\/aff","storeURL":"http:\/\/www.8coupons.com\/discounts\/eye-street-massage-therapy-washington-20006","dealSource":"doubleclick.net","user":"Spa Week","userID":"42321","ID":"8087293","dealTitle":"10% off Gift Cards with code:\"8coupons\" at Spaweek.com","disclaimer":"","dealinfo":"The Spa & Wellness Gift Card by Spa Week are accepted at over 4200 spas nationwide and never expire!","expirationDate":"2012-09-09","postDate":"2012-08-26 17:06:19","showImage":null,"showLogo":"http:\/\/www.8coupons.com\/partners\/logo\/small\/spa-week.jpeg","up":null,"down":null,"DealTypeID":null,"categoryID":"3","subcategoryID":"59","lat":"38.9016","lon":"-77.0444","distance":"0.322771731859455","dealOriginalPrice":"100","dealPrice":"90","dealSavings":"0","dealDiscountPercent":"10"},
{"affiliate":"yes","name":"Touch Studio of Massage","address":"1234 19th St NW","address2":"600","storeID":"203284","chainID":null,"totalDealsInThisStore":"1","homepage":null,"phone":"202.429.8666","state":"DC","city":"Washington","ZIP":"20036","URL":"http:\/\/www.8coupons.com\/apiout\/showdeal\/deal\/6368087\/1698021\/aff","storeURL":"http:\/\/www.8coupons.com\/discounts\/touch-studio-of-massage-washington-20036","dealSource":"yelp.com","user":"yelp","userID":"733207","ID":"6368087","dealTitle":"$50 for $75 Certificate","disclaimer":"","dealinfo":"A voucher redeemable for $75 at Touch Studio of Massage. Print out your voucher, or redeem on your phone with the  Yelp app .","expirationDate":"2012-08-31","postDate":"2012-08-28 06:37:53","showImage":"http:\/\/s3-media2.ak.yelpcdn.com\/bphoto\/fI6oYYiHrKxM4YXFgWIIBg\/l.jpg","showLogo":"http:\/\/www.8coupons.com\/partners\/logo\/small\/yelp.png","up":"1","down":"0","DealTypeID":"1","categoryID":"3","subcategoryID":"59","lat":"38.9069","lon":"-77.0437","distance":"0.52354353362744","dealOriginalPrice":"75","dealPrice":"50","dealSavings":"25","dealDiscountPercent":"33"},
{"affiliate":"yes","name":"Touch Studio of Massage","address":"1234 19th St NW","address2":"600","storeID":"203284","chainID":null,"totalDealsInThisStore":"3","homepage":null,"phone":"202.429.8666","state":"DC","city":"Washington","ZIP":"20036","URL":"http:\/\/www.8coupons.com\/apiout\/showdeal\/deal\/7735669\/1698021\/aff","storeURL":"http:\/\/www.8coupons.com\/discounts\/touch-studio-of-massage-washington-20036","dealSource":"wusa9.com","user":"DataSphere","userID":"309539","ID":"7735669","dealTitle":"$15 Off Any Massage 1 Hour and Up!","disclaimer":"Receive $15 off any massage of 1 hour and up with this coupon! Must present this coupon. Not valid with any other offer or prior purchase.","dealinfo":"","expirationDate":"2012-09-24","postDate":"2012-03-23 07:12:36","showImage":"http:\/\/images.secondspace.com\/p\/8Coupons\/20\/00\/62\/04\/9\/WUSA-12501938-touch-studio-massage-logo_125_125.gif","showLogo":"http:\/\/www.8coupons.com\/partners\/logo\/small\/datasphere.jpg","up":null,"down":null,"DealTypeID":"1","categoryID":"3","subcategoryID":"59","lat":"38.9069","lon":"-77.0437","distance":"0.52354353362744","dealOriginalPrice":null,"dealPrice":null,"dealSavings":"","dealDiscountPercent":null},
{"affiliate":"yes","name":"Touch Studio of Massage","address":"1234 19th St NW","address2":"600","storeID":"203284","chainID":null,"totalDealsInThisStore":"1","homepage":null,"phone":"202.429.8666","state":"DC","city":"Washington","ZIP":"20036","URL":"http:\/\/www.8coupons.com\/apiout\/showdeal\/deal\/8087315\/1698021\/aff","storeURL":"http:\/\/www.8coupons.com\/discounts\/touch-studio-of-massage-washington-20036","dealSource":"doubleclick.net","user":"Spa Week","userID":"42321","ID":"8087315","dealTitle":"10% off Gift Cards with code:\"8coupons\" at Spaweek.com","disclaimer":"","dealinfo":"The Spa & Wellness Gift Card by Spa Week are accepted at over 4200 spas nationwide and never expire!","expirationDate":"2012-09-08","postDate":"2012-08-25 17:06:38","showImage":null,"showLogo":"http:\/\/www.8coupons.com\/partners\/logo\/small\/spa-week.jpeg","up":null,"down":null,"DealTypeID":null,"categoryID":"3","subcategoryID":"59","lat":"38.9069","lon":"-77.0437","distance":"0.52354353362744","dealOriginalPrice":"100","dealPrice":"90","dealSavings":"0","dealDiscountPercent":"10"},
{"affiliate":"yes","name":"THE Massage Guru","address":"Mobile Day Spa Serving the DMV Area","address2":"","storeID":"2170871","chainID":null,"totalDealsInThisStore":"1","homepage":"","phone":"202.553.1173","state":"DC","city":"Washington","ZIP":"20006","URL":"http:\/\/www.8coupons.com\/apiout\/showdeal\/deal\/6506861\/1698021\/aff","storeURL":"http:\/\/www.8coupons.com\/discounts\/the-massage-guru-washington-20006","dealSource":"doubleclick.net","user":"Spa Week","userID":"42321","ID":"6506861","dealTitle":"10% off Gift Cards with code:\"8coupons\" at Spaweek.com","disclaimer":"","dealinfo":"The Spa & Wellness Gift Card by Spa Week are accepted at over 4200 spas nationwide and never expire!","expirationDate":"2012-09-06","postDate":"2012-08-23 04:11:55","showImage":null,"showLogo":"http:\/\/www.8coupons.com\/partners\/logo\/small\/spa-week.jpeg","up":"1","down":"0","DealTypeID":null,"categoryID":"3","subcategoryID":null,"lat":"38.8997","lon":"-77.0399","distance":"0.576626028438178","dealOriginalPrice":"100","dealPrice":"90","dealSavings":"10","dealDiscountPercent":"10"},
{"affiliate":"yes","name":"Glow Tanning","address":"1334 Wisconsin Ave NW","address2":"","storeID":"203764","chainID":null,"totalDealsInThisStore":"1","homepage":null,"phone":"202.338.4569","state":"DC","city":"Washington","ZIP":"20007","URL":"http:\/\/www.8coupons.com\/apiout\/showdeal\/deal\/6656567\/1698021\/aff","storeURL":"http:\/\/www.8coupons.com\/discounts\/glow-tanning-salon-washington-20007","dealSource":"yelp.com","user":"yelp","userID":"733207","ID":"6656567","dealTitle":"$10 for $20 Certificate","disclaimer":"","dealinfo":"A voucher redeemable for $20 at Glow Tanning. Print out your voucher, or redeem on your phone with the  Yelp app .","expirationDate":"2012-08-31","postDate":"2012-08-28 05:06:59","showImage":"http:\/\/s3-media3.ak.yelpcdn.com\/dphoto\/PoG2n745kWbI5n689jKwwA\/l.jpg","showLogo":"http:\/\/www.8coupons.com\/partners\/logo\/small\/yelp.png","up":"1","down":"0","DealTypeID":"1","categoryID":"3","subcategoryID":"66","lat":"38.9076","lon":"-77.0634","distance":"0.819886437228066","dealOriginalPrice":"20","dealPrice":"10","dealSavings":"10","dealDiscountPercent":"50"},
{"affiliate":"yes","name":"Piaf Salon and Day Spa","address":"1023 15th St NW","address2":"","storeID":"203554","chainID":null,"totalDealsInThisStore":"1","homepage":null,"phone":"202.783.3334","state":"DC","city":"Washington","ZIP":"20005","URL":"http:\/\/www.8coupons.com\/apiout\/showdeal\/deal\/8087305\/1698021\/aff","storeURL":"http:\/\/www.8coupons.com\/discounts\/piaf-salon-day-spa-washington-20005","dealSource":"doubleclick.net","user":"Spa Week","userID":"42321","ID":"8087305","dealTitle":"10% off Gift Cards with code:\"8coupons\" at Spaweek.com","disclaimer":"","dealinfo":"The Spa & Wellness Gift Card by Spa Week are accepted at over 4200 spas nationwide and never expire!","expirationDate":"2012-09-07","postDate":"2012-08-24 04:08:59","showImage":null,"showLogo":"http:\/\/www.8coupons.com\/partners\/logo\/small\/spa-week.jpeg","up":null,"down":null,"DealTypeID":null,"categoryID":"3","subcategoryID":"65","lat":"38.9033","lon":"-77.0342","distance":"0.880834832967065","dealOriginalPrice":"100","dealPrice":"90","dealSavings":"0","dealDiscountPercent":"10"},
{"affiliate":"yes","name":"Expertly Crafted Wellness","address":"1615 Q Street NW","address2":"","storeID":"1827721","chainID":null,"totalDealsInThisStore":"1","homepage":"","phone":"202.257.9726","state":"DC","city":"Washington","ZIP":"20036","URL":"http:\/\/www.8coupons.com\/apiout\/showdeal\/deal\/8809287\/1698021\/aff","storeURL":"http:\/\/www.8coupons.com\/discounts\/expertly-crafted-massage-washington-20036","dealSource":"yelp.com","user":"yelp","userID":"733207","ID":"8809287","dealTitle":"$44 for $90 Certificate","disclaimer":"","dealinfo":"A voucher redeemable for $90 at Expertly Crafted Wellness. Print out your voucher, or redeem on your phone with the  Yelp app .","expirationDate":"2012-08-31","postDate":"2012-08-28 06:37:51","showImage":"http:\/\/s3-media2.ak.yelpcdn.com\/dphoto\/agziaV5axLwpvfuQut60WA\/l.jpg","showLogo":"http:\/\/www.8coupons.com\/partners\/logo\/small\/yelp.png","up":null,"down":null,"DealTypeID":"1","categoryID":"3","subcategoryID":"59","lat":"38.9112","lon":"-77.0375","distance":"0.969493992922461","dealOriginalPrice":"90","dealPrice":"44","dealSavings":"46","dealDiscountPercent":"51"},
{"affiliate":"yes","name":"Whole Glow","address":"1820 Swann St NW","address2":"","storeID":"2661173","chainID":null,"totalDealsInThisStore":"1","homepage":"","phone":"301.758.3676","state":"DC","city":"Washington","ZIP":"20009","URL":"http:\/\/www.8coupons.com\/apiout\/showdeal\/deal\/8316700\/1698021\/aff","storeURL":"http:\/\/www.8coupons.com\/discounts\/whole-glow-washington-20009","dealSource":"yelp.com","user":"yelp","userID":"733207","ID":"8316700","dealTitle":"$50 for $75 Certificate","disclaimer":"","dealinfo":"A voucher redeemable for $75 at Whole Glow. Print out your voucher, or redeem on your phone with the  Yelp app .","expirationDate":"2012-08-31","postDate":"2012-08-28 04:36:25","showImage":"http:\/\/s3-media2.ak.yelpcdn.com\/dphoto\/gcHAwUQm74rLGp4ClrEDHA\/l.jpg","showLogo":"http:\/\/www.8coupons.com\/partners\/logo\/small\/yelp.png","up":null,"down":null,"DealTypeID":"1","categoryID":"3","subcategoryID":"66","lat":"38.9148","lon":"-77.0424","distance":"1.02094614977072","dealOriginalPrice":"75","dealPrice":"50","dealSavings":"25","dealDiscountPercent":"33"},
{"affiliate":"yes","name":"Body Rays Tanning","address":"1635 R St NW","address2":"","storeID":"203421","chainID":null,"totalDealsInThisStore":"1","homepage":null,"phone":"202.667.4525","state":"DC","city":"Washington","ZIP":"20009","URL":"http:\/\/www.8coupons.com\/apiout\/showdeal\/deal\/6368073\/1698021\/aff","storeURL":"http:\/\/www.8coupons.com\/discounts\/body-rays-washington-20009","dealSource":"yelp.com","user":"yelp","userID":"733207","ID":"6368073","dealTitle":"$10 for $20 Certificate","disclaimer":"","dealinfo":"A voucher redeemable for $20 at Body Rays Tanning. Print out your voucher, or redeem on your phone with the  Yelp app .","expirationDate":"2012-08-31","postDate":"2012-08-28 06:37:53","showImage":"http:\/\/s3-media3.ak.yelpcdn.com\/dphoto\/0LHLRg-oCu96iFtMmfjy8g\/l.jpg","showLogo":"http:\/\/www.8coupons.com\/partners\/logo\/small\/yelp.png","up":"1","down":"0","DealTypeID":"1","categoryID":"3","subcategoryID":"66","lat":"38.9128","lon":"-77.038","distance":"1.03192569959561","dealOriginalPrice":"20","dealPrice":"10","dealSavings":"10","dealDiscountPercent":"50"},
{"affiliate":"yes","name":"Glynn Jones Salon","address":"1635 R Street NW","address2":"","storeID":"2067919","chainID":null,"totalDealsInThisStore":"1","homepage":null,"phone":"202.234.4445","state":"DC","city":"Washington","ZIP":"20009","URL":"http:\/\/www.8coupons.com\/apiout\/showdeal\/deal\/6794853\/1698021\/aff","storeURL":"http:\/\/www.8coupons.com\/discounts\/glynn-jones-salon-washington-20009","dealSource":"yelp.com","user":"yelp","userID":"733207","ID":"6794853","dealTitle":"$50 for $75 Certificate","disclaimer":"","dealinfo":"A voucher redeemable for $75 at Glynn Jones Salon. Print out your voucher, or redeem on your phone with the  Yelp app .","expirationDate":"2012-08-31","postDate":"2012-08-28 06:37:51","showImage":"http:\/\/s3-media2.ak.yelpcdn.com\/dphoto\/aX_017DSpw-9rjfQOIHg5Q\/l.jpg","showLogo":"http:\/\/www.8coupons.com\/partners\/logo\/small\/yelp.png","up":"1","down":"0","DealTypeID":"1","categoryID":"3","subcategoryID":"65","lat":"38.9129","lon":"-77.038","distance":"1.03716614429177","dealOriginalPrice":"75","dealPrice":"50","dealSavings":"25","dealDiscountPercent":"33"},
{"affiliate":"yes","name":"Charmthai Restaurant","address":"2514 L St NW","address2":"","storeID":"205200","chainID":null,"totalDealsInThisStore":"1","homepage":null,"phone":"202.333.2460","state":"DC","city":"Washington","ZIP":"20037","URL":"http:\/\/www.8coupons.com\/discounts\/thai-coast-restaurant-washington-20037","storeURL":"http:\/\/www.8coupons.com\/discounts\/thai-coast-restaurant-washington-20037","dealSource":"restaurant.com","user":"Restaurant.com","userID":"54727","ID":"7067661","dealTitle":"$10 Gift Certificate for $4.00","disclaimer":"Minimum purchase of $20. 18% Gratuity added prior to discount. Valid for Dinner, Dine In ONLY. Excludes: Other Offers\/Promotions. Present prior to ordering.","dealinfo":"Thai Food For Good Health","expirationDate":"2012-08-30","postDate":"2012-08-27 23:25:49","showImage":null,"showLogo":"http:\/\/www.8coupons.com\/partners\/logo\/small\/restaurant.png","up":null,"down":null,"DealTypeID":"1","categoryID":"1","subcategoryID":"11","lat":"38.9035","lon":"-77.0543","distance":"0.254934230173108","dealOriginalPrice":"10","dealPrice":"5","dealSavings":"5","dealDiscountPercent":"50"},
{"affiliate":"yes","name":"Charmthai Restaurant","address":"2514 L St NW","address2":"","storeID":"205200","chainID":null,"totalDealsInThisStore":"1","homepage":null,"phone":"202.333.2460","state":"DC","city":"Washington","ZIP":"20037","URL":"http:\/\/www.8coupons.com\/apiout\/showdeal\/deal\/7067665\/1698021\/aff","storeURL":"http:\/\/www.8coupons.com\/discounts\/thai-coast-restaurant-washington-20037","dealSource":"restaurant.com","user":"Restaurant.com","userID":"54727","ID":"7067665","dealTitle":"$50 Gift Certificate for $20.00","disclaimer":"Minimum purchase of $100. 18% Gratuity added prior to discount. Valid for Dinner, Dine In ONLY. Excludes: Other Offers\/Promotions. Present prior to ordering.","dealinfo":"Thai Food For Good Health","expirationDate":"2012-08-30","postDate":"2012-08-27 23:25:49","showImage":null,"showLogo":"http:\/\/www.8coupons.com\/partners\/logo\/small\/restaurant.png","up":null,"down":null,"DealTypeID":"1","categoryID":"1","subcategoryID":"11","lat":"38.9035","lon":"-77.0543","distance":"0.254934230173108","dealOriginalPrice":"50","dealPrice":"20","dealSavings":"30","dealDiscountPercent":"60"},
{"affiliate":"yes","name":"Charmthai Restaurant","address":"2514 L St NW","address2":"","storeID":"205200","chainID":null,"totalDealsInThisStore":"1","homepage":null,"phone":"202.333.2460","state":"DC","city":"Washington","ZIP":"20037","URL":"http:\/\/www.8coupons.com\/apiout\/showdeal\/deal\/7067663\/1698021\/aff","storeURL":"http:\/\/www.8coupons.com\/discounts\/thai-coast-restaurant-washington-20037","dealSource":"restaurant.com","user":"Restaurant.com","userID":"54727","ID":"7067663","dealTitle":"$25 Gift Certificate for $10.00","disclaimer":"Minimum purchase of $35. 18% Gratuity added prior to discount. Valid for Dinner, Dine In ONLY. Excludes: Other Offers\/Promotions. Present prior to ordering. Not Valid with Single purchase Pre-Set Dinner Menu.","dealinfo":"Thai Food For Good Health","expirationDate":"2012-08-31","postDate":"2012-08-28 06:38:17","showImage":null,"showLogo":"http:\/\/www.8coupons.com\/partners\/logo\/small\/restaurant.png","up":null,"down":null,"DealTypeID":"1","categoryID":"1","subcategoryID":"11","lat":"38.9035","lon":"-77.0543","distance":"0.254934230173108","dealOriginalPrice":"25","dealPrice":"10","dealSavings":"15","dealDiscountPercent":"60"},
{"affiliate":"yes","name":"Charmthai Restaurant","address":"2514 L St NW","address2":"","storeID":"205200","chainID":null,"totalDealsInThisStore":"1","homepage":null,"phone":"202.333.2460","state":"DC","city":"Washington","ZIP":"20037","URL":"http:\/\/www.8coupons.com\/apiout\/showdeal\/deal\/8423039\/1698021\/aff","storeURL":"http:\/\/www.8coupons.com\/discounts\/thai-coast-restaurant-washington-20037","dealSource":"restaurant.com","user":"Restaurant.com","userID":"54727","ID":"8423039","dealTitle":"$15 Gift Certificate for $6.00","disclaimer":"Minimum purchase of $22.50. 18% Gratuity added prior to discount. Valid for Dinner , Dine In ONLY. Excludes: Other Offers\/Promotions. Present prior to ordering. Not Valid with Single purchase Pre-Set Dinner Menu.","dealinfo":"Thai Food For Good Health","expirationDate":"2012-08-31","postDate":"2012-08-28 06:38:18","showImage":null,"showLogo":"http:\/\/www.8coupons.com\/partners\/logo\/small\/restaurant.png","up":null,"down":null,"DealTypeID":"1","categoryID":"1","subcategoryID":"11","lat":"38.9035","lon":"-77.0543","distance":"0.254934230173108","dealOriginalPrice":"15","dealPrice":"6","dealSavings":"9","dealDiscountPercent":"60"},
{"affiliate":"yes","name":"Thai Coast","address":"2514 L St NW","address2":"","storeID":"205200","chainID":null,"totalDealsInThisStore":"1","homepage":null,"phone":"202.333.2460","state":"DC","city":"Washington","ZIP":"20037","URL":"http:\/\/www.8coupons.com\/apiout\/showdeal\/deal\/7409181\/1698021\/aff","storeURL":"http:\/\/www.8coupons.com\/discounts\/thai-coast-restaurant-washington-20037","dealSource":"mobilespinach.com","user":"Mobile Spinach","userID":"42381","ID":"7409181","dealTitle":"Thai Coast: $3 for $6 at Thai Coast ","disclaimer":"","dealinfo":"Being good at just one thing isn't impressive in this age of multitasking, mobile phones and social media. Instead of creating one type of food well, why not make them all exceptional! Check out this eatery's extensive menu and you're sure to fall in love with something they specialize in. Enjoy! This restaurant, specializing in everything and anything you can imagine, creates all their dishes with exceptional attention to detail and a flare for taste. When an eatery features a ton of different items on their menu, they are promising an excellent meal no matter what your pallet prefers. This establishment serves up exceptional cuisine from many different culinary traditions, so enjoy!This voucher does not expire. Your voucher is always redeemable for the amount you paid, less any value that you have already received. Gratuity and sales tax not included. Sales tax is paid off of the face value of the voucher. Not to be combined with other deals or offers. Subject to the Mobile Spinach General Terms.","expirationDate":"2012-09-17","postDate":"2012-04-23 03:01:13","showImage":"http:\/\/www.mobilespinach.com\/ads\/deals\/33740\/images?dimensions=275x180&appid=27","showLogo":"http:\/\/www.8coupons.com\/partners\/logo\/small\/mobilespinach.png","up":null,"down":null,"DealTypeID":"1","categoryID":"1","subcategoryID":"11","lat":"38.9035","lon":"-77.0543","distance":"0.254934230173108","dealOriginalPrice":null,"dealPrice":null,"dealSavings":"","dealDiscountPercent":null},
{"affiliate":"yes","name":"Primi Piatti","address":"2013 I St NW","address2":"","storeID":"206447","chainID":null,"totalDealsInThisStore":"2","homepage":null,"phone":"202.223.3600","state":"DC","city":"Washington","ZIP":"20006","URL":"http:\/\/www.8coupons.com\/apiout\/showdeal\/deal\/6347767\/1698021\/aff","storeURL":"http:\/\/www.8coupons.com\/discounts\/primi-piatti-washington-20006","dealSource":"savored.com","user":"savored","userID":"66691","ID":"6347767","dealTitle":"30% OFF ALL FOOD & DRINK","disclaimer":"You can change or cancel your reservation up until 2 hours before your scheduled reservation time.","dealinfo":"Members reserve these tables through Savored for $10 per reservation.  A 30% discount is automatically applied to your bill. No coupons or fine print  only guaranteed savings.  If your partys savings dont exceed your booking fee, well refund the price of your reservation.","expirationDate":"2012-09-11","postDate":"2012-08-28 04:09:30","showImage":"http:\/\/s3.amazonaws.com\/savored.com\/ce6f5073-3bf6-47f1-97ec-c748e09ea76a.png","showLogo":"http:\/\/www.8coupons.com\/partners\/logo\/small\/savored.png","up":"1","down":"0","DealTypeID":"2","categoryID":"1","subcategoryID":"25","lat":"38.9013","lon":"-77.0456","distance":"0.258161083296463","dealOriginalPrice":null,"dealPrice":null,"dealSavings":"","dealDiscountPercent":null},
{"affiliate":"yes","name":"Mie N Yu","address":"3125 M St NW","address2":"","storeID":"207897","chainID":null,"totalDealsInThisStore":"2","homepage":null,"phone":"202.333.6122","state":"DC","city":"Washington","ZIP":"20037","URL":"http:\/\/www.8coupons.com\/apiout\/showdeal\/deal\/6347051\/1698021\/aff","storeURL":"http:\/\/www.8coupons.com\/discounts\/mie-n-yu-washington-20007","dealSource":"savored.com","user":"savored","userID":"66691","ID":"6347051","dealTitle":"30% OFF ALL FOOD & DRINK","disclaimer":"You can change or cancel your reservation up until 2 hours before your scheduled reservation time.","dealinfo":"Members reserve these tables through Savored for $10 per reservation.  A 30% discount is automatically applied to your bill. No coupons or fine print  only guaranteed savings.  If your partys savings dont exceed your booking fee, well refund the price of your reservation.","expirationDate":"2012-09-10","postDate":"2012-08-27 04:11:48","showImage":"http:\/\/s3.amazonaws.com\/savored-dev\/23cf3316-7abb-4874-81e9-d8c3cd3a3738.png","showLogo":"http:\/\/www.8coupons.com\/partners\/logo\/small\/savored.png","up":"1","down":"0","DealTypeID":"2","categoryID":"1","subcategoryID":"11","lat":"38.9053","lon":"-77.0476","distance":"0.309910719707737","dealOriginalPrice":null,"dealPrice":null,"dealSavings":"","dealDiscountPercent":null},
{"affiliate":"yes","name":"Aroma Indian Cuisine","address":"1919 I Street NW","address2":"","storeID":"203238","chainID":null,"totalDealsInThisStore":"1","homepage":null,"phone":"202.833.4700","state":"DC","city":"Washington","ZIP":"20006","URL":"http:\/\/www.8coupons.com\/apiout\/showdeal\/deal\/7253309\/1698021\/aff","storeURL":"http:\/\/www.8coupons.com\/discounts\/aroma-indian-restaurant-washington-20006","dealSource":"yelp.com","user":"yelp","userID":"733207","ID":"7253309","dealTitle":"$10 for $20 Certificate","disclaimer":"","dealinfo":"A voucher redeemable for $20 at Aroma Indian Cuisine. Print out your voucher, or redeem on your phone with the  Yelp app .","expirationDate":"2012-08-31","postDate":"2012-08-28 06:37:51","showImage":"http:\/\/s3-media4.ak.yelpcdn.com\/dphoto\/sg5JpXVB9eFz321cKwvtaQ\/l.jpg","showLogo":"http:\/\/www.8coupons.com\/partners\/logo\/small\/yelp.png","up":null,"down":null,"DealTypeID":"1","categoryID":"1","subcategoryID":"23","lat":"38.9015","lon":"-77.0444","distance":"0.322551382845074","dealOriginalPrice":"20","dealPrice":"10","dealSavings":"10","dealDiscountPercent":"50"},
{"affiliate":"yes","name":"Aroma Indian Restaurant","address":"1919 I Street NW","address2":"","storeID":"203238","chainID":null,"totalDealsInThisStore":"1","homepage":null,"phone":"202.833.4700","state":"DC","city":"Washington","ZIP":"20006","URL":"http:\/\/www.8coupons.com\/apiout\/showdeal\/deal\/8489583\/1698021\/aff","storeURL":"http:\/\/www.8coupons.com\/discounts\/aroma-indian-restaurant-washington-20006","dealSource":"restaurant.com","user":"Restaurant.com","userID":"54727","ID":"8489583","dealTitle":"$15 Gift Certificate for $6.00","disclaimer":"Minimum purchase of $22.50. 20% Gratuity added prior to discount. Valid for Dinner, Dine In ONLY. Excludes: Alcohol. Valid at this location only. Valid with parties of 2 or more.","dealinfo":"Aroma Indian Restaurant is located in the heart of the Washington, DC and brings you the flavors of India in its finest forms.","expirationDate":"2012-08-29","postDate":"2012-08-26 14:38:37","showImage":null,"showLogo":"http:\/\/www.8coupons.com\/partners\/logo\/small\/restaurant.png","up":null,"down":null,"DealTypeID":"1","categoryID":"1","subcategoryID":"23","lat":"38.9015","lon":"-77.0444","distance":"0.322551382845074","dealOriginalPrice":"15","dealPrice":"6","dealSavings":"9","dealDiscountPercent":"60"},
{"affiliate":"yes","name":"Aroma Indian Restaurant","address":"1919 I Street NW","address2":"","storeID":"203238","chainID":null,"totalDealsInThisStore":"1","homepage":null,"phone":"202.833.4700","state":"DC","city":"Washington","ZIP":"20006","URL":"http:\/\/www.8coupons.com\/apiout\/showdeal\/deal\/3822397\/1698021\/aff","storeURL":"http:\/\/www.8coupons.com\/discounts\/aroma-indian-restaurant-washington-20006","dealSource":"restaurant.com","user":"Restaurant.com","userID":"54727","ID":"3822397","dealTitle":"$25 Gift Certificate for $10.00","disclaimer":"Minimum purchase of $50. 20% Gratuity added prior to discount. Valid for Dinner , Dine In ONLY. Excludes: Alcohol. Present prior to ordering. Valid at this location only. Valid with parties of 2 or more.","dealinfo":"Aroma Indian Restaurant is located in the heart of the Washington, DC and brings you the flavors of India in its finest forms.","expirationDate":"2012-08-30","postDate":"2012-08-27 20:14:19","showImage":null,"showLogo":"http:\/\/www.8coupons.com\/partners\/logo\/small\/restaurant.png","up":"1","down":"0","DealTypeID":"1","categoryID":"1","subcategoryID":"23","lat":"38.9015","lon":"-77.0444","distance":"0.322551382845074","dealOriginalPrice":null,"dealPrice":null,"dealSavings":"","dealDiscountPercent":null},
{"affiliate":"yes","name":"Hudson Restaurant & Lounge","address":"2030 M St NW","address2":"","storeID":"204814","chainID":null,"totalDealsInThisStore":"2","homepage":null,"phone":"202.872.8700","state":"DC","city":"Washington","ZIP":"20036","URL":"http:\/\/www.8coupons.com\/apiout\/showdeal\/deal\/7592197\/1698021\/aff","storeURL":"http:\/\/www.8coupons.com\/discounts\/hudson-restaurant-lounge-washington-20036","dealSource":"savored.com","user":"savored","userID":"66691","ID":"7592197","dealTitle":"30% OFF ALL FOOD & DRINK","disclaimer":"You can change or cancel your reservation up until 2 hours before your scheduled reservation time.","dealinfo":"Members reserve these tables through Savored for $10 per reservation.  A 30% discount is automatically applied to your bill. No coupons or fine print  only guaranteed savings.  If your partys savings dont exceed your booking fee, well refund the price of your reservation.","expirationDate":"2012-09-11","postDate":"2012-08-28 04:09:30","showImage":"http:\/\/s3.amazonaws.com\/savored.com\/02059981-8c7a-4bf0-a56a-63c19ec4a597.png","showLogo":"http:\/\/www.8coupons.com\/partners\/logo\/small\/savored.png","up":null,"down":null,"DealTypeID":"2","categoryID":"1","subcategoryID":"2","lat":"38.9054","lon":"-77.0463","distance":"0.353418531990584","dealOriginalPrice":null,"dealPrice":null,"dealSavings":"","dealDiscountPercent":null},
{"affiliate":"yes","name":"Rivers at the Watergate","address":"600 New Hamsphire Avenue, NW","address2":"","storeID":"2333779","chainID":null,"totalDealsInThisStore":"1","homepage":"","phone":"202.333.1600","state":"DC","city":"Washington","ZIP":"20037","URL":"http:\/\/www.8coupons.com\/apiout\/showdeal\/deal\/6268993\/1698021\/aff","storeURL":"http:\/\/www.8coupons.com\/discounts\/rivers-at-the-watergate-washington-20037","dealSource":"restaurant.com","user":"Restaurant.com","userID":"54727","ID":"6268993","dealTitle":"$10 Gift Certificate for $4.00","disclaimer":"Minimum purchase of $20. 18% Gratuity added prior to discount. Valid for Dine In ONLY. Excludes: Holidays\/Special Events, Other Offers\/Promotions. Present prior to ordering. Not Valid with other discount offers or promotions. Not Valid Pre-Theatre.","dealinfo":"An Elegant Dining Establishment located at the Watergate... directly across from the Kennedy Center.","expirationDate":"2012-08-30","postDate":"2012-08-27 23:21:24","showImage":null,"showLogo":"http:\/\/www.8coupons.com\/partners\/logo\/small\/restaurant.png","up":null,"down":null,"DealTypeID":"1","categoryID":"1","subcategoryID":"11","lat":"38.8976","lon":"-77.0548","distance":"0.353610312378575","dealOriginalPrice":"10","dealPrice":"5","dealSavings":"5","dealDiscountPercent":"50"},
{"affiliate":"yes","name":"Rivers at the Watergate","address":"600 New Hamsphire Avenue, NW","address2":"","storeID":"2333779","chainID":null,"totalDealsInThisStore":"1","homepage":"","phone":"202.333.1600","state":"DC","city":"Washington","ZIP":"20037","URL":"http:\/\/www.8coupons.com\/apiout\/showdeal\/deal\/6268995\/1698021\/aff","storeURL":"http:\/\/www.8coupons.com\/discounts\/rivers-at-the-watergate-washington-20037","dealSource":"restaurant.com","user":"Restaurant.com","userID":"54727","ID":"6268995","dealTitle":"$25 Gift Certificate for $10.00","disclaimer":"Minimum 2 entrees. 18% Gratuity added prior to discount. Valid for Dinner, Dine In ONLY. Excludes: Holidays\/Special Events, Other Offers\/Promotions. Present prior to ordering. Not Valid with other discount offers or promotions. NOT VALID PRE-THEATRE HOURS (please see hours for more details).","dealinfo":"An Elegant Dining Establishment located at the Watergate... directly across from the Kennedy Center.","expirationDate":"2012-08-31","postDate":"2012-08-28 06:31:32","showImage":null,"showLogo":"http:\/\/www.8coupons.com\/partners\/logo\/small\/restaurant.png","up":"1","down":"0","DealTypeID":"1","categoryID":"1","subcategoryID":"11","lat":"38.8976","lon":"-77.0548","distance":"0.353610312378575","dealOriginalPrice":"25","dealPrice":"10","dealSavings":"15","dealDiscountPercent":"60"},
{"affiliate":"yes","name":"Rivers at the Watergate","address":"600 New Hamsphire Avenue, NW","address2":"","storeID":"2333779","chainID":null,"totalDealsInThisStore":"1","homepage":"","phone":"202.333.1600","state":"DC","city":"Washington","ZIP":"20037","URL":"http:\/\/www.8coupons.com\/apiout\/showdeal\/deal\/6268997\/1698021\/aff","storeURL":"http:\/\/www.8coupons.com\/discounts\/rivers-at-the-watergate-washington-20037","dealSource":"restaurant.com","user":"Restaurant.com","userID":"54727","ID":"6268997","dealTitle":"$75 Gift Certificate for $30.00","disclaimer":"Minimum purchase of $150. 18% Gratuity added prior to discount. Valid for Dinner, Dine In ONLY. Excludes: Holidays\/Special Events, Other Offers\/Promotions. Present prior to ordering. Not Valid with other discount offers or promotions. Not Valid Pre-Theatre.","dealinfo":"An Elegant Dining Establishment located at the Watergate... directly across from the Kennedy Center.","expirationDate":"2012-08-30","postDate":"2012-08-27 23:21:24","showImage":null,"showLogo":"http:\/\/www.8coupons.com\/partners\/logo\/small\/restaurant.png","up":"1","down":"0","DealTypeID":"1","categoryID":"1","subcategoryID":"11","lat":"38.8976","lon":"-77.0548","distance":"0.353610312378575","dealOriginalPrice":"75","dealPrice":"30","dealSavings":"45","dealDiscountPercent":"60"},
{"affiliate":"yes","name":"Rivers at the Watergate","address":"600 New Hamsphire Avenue, NW","address2":"","storeID":"2333779","chainID":null,"totalDealsInThisStore":"1","homepage":"","phone":"202.333.1600","state":"DC","city":"Washington","ZIP":"20037","URL":"http:\/\/www.8coupons.com\/apiout\/showdeal\/deal\/8494415\/1698021\/aff","storeURL":"http:\/\/www.8coupons.com\/discounts\/rivers-at-the-watergate-washington-20037","dealSource":"restaurant.com","user":"Restaurant.com","userID":"54727","ID":"8494415","dealTitle":"$15 Gift Certificate for $6.00","disclaimer":"Minimum purchase of $22.50. Minimum 2 entrees. 18% Gratuity added prior to discount. Valid for Dinner, Dine In ONLY. Excludes: Holiday\/Special Events, Other Offers\/Promotions. Present prior to ordering. Not Valid with other discount offers or promotions. NOT VALID PRE-THEATRE HOURS (please see hours for more details).","dealinfo":"An Elegant Dining Establishment located at the Watergate... directly across from the Kennedy Center.","expirationDate":"2012-08-31","postDate":"2012-08-28 06:31:32","showImage":null,"showLogo":"http:\/\/www.8coupons.com\/partners\/logo\/small\/restaurant.png","up":null,"down":null,"DealTypeID":"1","categoryID":"1","subcategoryID":"11","lat":"38.8976","lon":"-77.0548","distance":"0.353610312378575","dealOriginalPrice":"15","dealPrice":"6","dealSavings":"9","dealDiscountPercent":"60"},
{"affiliate":"yes","name":"ABC CHEAP LOCKSMITH AND LOCKS SERVICE","address":"912 New Hampshire Ave NW","address2":"","storeID":"2500243","chainID":null,"totalDealsInThisStore":"1","homepage":null,"phone":"888.601.9805","state":"DC","city":"Washington","ZIP":"20037","URL":"http:\/\/www.8coupons.com\/discounts\/abc-cheap-locksmith-and-locks-service-washington-20037","storeURL":"http:\/\/www.8coupons.com\/discounts\/abc-cheap-locksmith-and-locks-service-washington-20037","dealSource":"citysearch.com","user":"Citysearch","userID":"64705","ID":"7068351","dealTitle":"10% OFF Locksmith Services for Senior Citizens & Students","disclaimer":"","dealinfo":"Senior Citizens & Students only.","expirationDate":null,"postDate":"2011-12-18 07:01:26","showImage":null,"showLogo":"http:\/\/www.8coupons.com\/partners\/logo\/small\/Citysearch.png","up":null,"down":null,"DealTypeID":null,"categoryID":"4","subcategoryID":"70","lat":"38.9011","lon":"-77.0517","distance":"0.0727453286729484","dealOriginalPrice":null,"dealPrice":null,"dealSavings":"","dealDiscountPercent":null},
{"affiliate":"yes","name":"ABC CHEAP LOCKSMITH AND LOCKS SERVICE","address":"912 New Hampshire Ave NW","address2":"","storeID":"2500243","chainID":null,"totalDealsInThisStore":"1","homepage":null,"phone":"888.601.9805","state":"DC","city":"Washington","ZIP":"20037","URL":"http:\/\/www.8coupons.com\/apiout\/showdeal\/deal\/7068353\/1698021\/aff","storeURL":"http:\/\/www.8coupons.com\/discounts\/abc-cheap-locksmith-and-locks-service-washington-20037","dealSource":"citysearch.com","user":"Citysearch","userID":"64705","ID":"7068353","dealTitle":"$29 Service Call for Any Locksmith Call","disclaimer":"","dealinfo":"Mention this ad to receive the offer.","expirationDate":null,"postDate":"2011-12-18 07:01:26","showImage":null,"showLogo":"http:\/\/www.8coupons.com\/partners\/logo\/small\/Citysearch.png","up":null,"down":null,"DealTypeID":null,"categoryID":"4","subcategoryID":"70","lat":"38.9011","lon":"-77.0517","distance":"0.0727453286729484","dealOriginalPrice":null,"dealPrice":null,"dealSavings":"","dealDiscountPercent":null},
{"affiliate":"yes","name":"ABC CHEAP LOCKSMITH AND LOCKS SERVICE","address":"912 New Hampshire Ave NW","address2":"","storeID":"2500243","chainID":null,"totalDealsInThisStore":"1","homepage":null,"phone":"888.601.9805","state":"DC","city":"Washington","ZIP":"20037","URL":"http:\/\/www.8coupons.com\/apiout\/showdeal\/deal\/7068355\/1698021\/aff","storeURL":"http:\/\/www.8coupons.com\/discounts\/abc-cheap-locksmith-and-locks-service-washington-20037","dealSource":"citysearch.com","user":"Citysearch","userID":"64705","ID":"7068355","dealTitle":"10% OFF Auto Computer Diagnostics for any Auto Repair","disclaimer":"","dealinfo":"Coupon required.","expirationDate":null,"postDate":"2011-12-18 07:01:26","showImage":null,"showLogo":"http:\/\/www.8coupons.com\/partners\/logo\/small\/Citysearch.png","up":null,"down":null,"DealTypeID":null,"categoryID":"4","subcategoryID":"70","lat":"38.9011","lon":"-77.0517","distance":"0.0727453286729484","dealOriginalPrice":null,"dealPrice":null,"dealSavings":"","dealDiscountPercent":null},
{"affiliate":"yes","name":"ABC CHEAP LOCKSMITH AND LOCKS SERVICE","address":"912 New Hampshire Ave NW","address2":"","storeID":"2500243","chainID":null,"totalDealsInThisStore":"1","homepage":null,"phone":"888.601.9805","state":"DC","city":"Washington","ZIP":"20037","URL":"http:\/\/www.8coupons.com\/apiout\/showdeal\/deal\/7068359\/1698021\/aff","storeURL":"http:\/\/www.8coupons.com\/discounts\/abc-cheap-locksmith-and-locks-service-washington-20037","dealSource":"citysearch.com","user":"Citysearch","userID":"64705","ID":"7068359","dealTitle":"FREE Towing with Any Collision Repair at Our Shop!","disclaimer":"","dealinfo":"Mention this ad to receive the offer.","expirationDate":null,"postDate":"2011-12-18 07:01:26","showImage":null,"showLogo":"http:\/\/www.8coupons.com\/partners\/logo\/small\/Citysearch.png","up":null,"down":null,"DealTypeID":null,"categoryID":"4","subcategoryID":"70","lat":"38.9011","lon":"-77.0517","distance":"0.0727453286729484","dealOriginalPrice":null,"dealPrice":null,"dealSavings":"","dealDiscountPercent":null},
{"affiliate":"yes","name":"Yousefi Washington Clinic","address":"3 Washington Cir","address2":"","storeID":"2352001","chainID":null,"totalDealsInThisStore":"1","homepage":"","phone":"202.785.9474","state":"DC","city":"Washington","ZIP":"20037","URL":"http:\/\/www.8coupons.com\/apiout\/showdeal\/deal\/6364191\/1698021\/aff","storeURL":"http:\/\/www.8coupons.com\/discounts\/yousefi-washington-clinic-20037","dealSource":"yelp.com","user":"yelp","userID":"733207","ID":"6364191","dealTitle":"$75 for $100 Certificate","disclaimer":"","dealinfo":"A voucher redeemable for $100 at Yousefi Washington Clinic. Print out your voucher, or redeem on your phone with the  Yelp app .","expirationDate":"2012-08-31","postDate":"2012-08-28 04:36:15","showImage":"http:\/\/s3-media1.ak.yelpcdn.com\/bphoto\/rYLPPDuFu7WEo-4u9iCf_w\/l.jpg","showLogo":"http:\/\/www.8coupons.com\/partners\/logo\/small\/yelp.png","up":"1","down":"0","DealTypeID":"1","categoryID":"4","subcategoryID":"69","lat":"38.9032","lon":"-77.0503","distance":"0.124369095865405","dealOriginalPrice":"100","dealPrice":"75","dealSavings":"25","dealDiscountPercent":"25"},
{"affiliate":"yes","name":"A-A-ALWAYS AVAILABLE LOCKSMITH","address":"2142 Pennsylvania Ave NW","address2":"","storeID":"2606869","chainID":null,"totalDealsInThisStore":"1","homepage":null,"phone":"202.683.9753","state":"DC","city":"Washington","ZIP":"20037","URL":"http:\/\/www.8coupons.com\/apiout\/showdeal\/deal\/7762457\/1698021\/aff","storeURL":"http:\/\/www.8coupons.com\/discounts\/a-a-always-available-locksmith-washington-20037","dealSource":"citysearch.com","user":"Citysearch","userID":"64705","ID":"7762457","dealTitle":"$29 Service Call for Any Locksmith Call","disclaimer":"","dealinfo":"Mention this ad to receive the offer.","expirationDate":null,"postDate":"2012-03-12 09:01:25","showImage":null,"showLogo":"http:\/\/www.8coupons.com\/partners\/logo\/small\/Citysearch.png","up":null,"down":null,"DealTypeID":null,"categoryID":"4","subcategoryID":"70","lat":"38.9016","lon":"-77.048","distance":"0.129979542619264","dealOriginalPrice":null,"dealPrice":null,"dealSavings":"","dealDiscountPercent":null},
{"affiliate":"yes","name":"A-A-ALWAYS AVAILABLE LOCKSMITH","address":"2142 Pennsylvania Ave NW","address2":"","storeID":"2606869","chainID":null,"totalDealsInThisStore":"1","homepage":null,"phone":"202.683.9753","state":"DC","city":"Washington","ZIP":"20037","URL":"http:\/\/www.8coupons.com\/apiout\/showdeal\/deal\/7762459\/1698021\/aff","storeURL":"http:\/\/www.8coupons.com\/discounts\/a-a-always-available-locksmith-washington-20037","dealSource":"citysearch.com","user":"Citysearch","userID":"64705","ID":"7762459","dealTitle":"FREE Junk Car Removal - We Pay Top Dollar for Your Junk Car\/Truck\/Bus!","disclaimer":"","dealinfo":"Mention this ad to receive the offer.","expirationDate":null,"postDate":"2012-03-12 09:01:25","showImage":null,"showLogo":"http:\/\/www.8coupons.com\/partners\/logo\/small\/Citysearch.png","up":null,"down":null,"DealTypeID":null,"categoryID":"4","subcategoryID":"70","lat":"38.9016","lon":"-77.048","distance":"0.129979542619264","dealOriginalPrice":null,"dealPrice":null,"dealSavings":"","dealDiscountPercent":null},
{"affiliate":"yes","name":"The George Washington University Inn","address":"824 New Hampshire Ave NW","address2":"","storeID":"2341289","chainID":null,"totalDealsInThisStore":"1","homepage":null,"phone":"866.215.6641","state":"DC","city":"Washington","ZIP":"20037","URL":"http:\/\/www.8coupons.com\/apiout\/showdeal\/deal\/6302769\/1698021\/aff","storeURL":"http:\/\/www.8coupons.com\/discounts\/the-george-washington-university-inn-20037","dealSource":"citysearch.com","user":"Citysearch","userID":"64705","ID":"6302769","dealTitle":"Wine and Dine Package Special in DC!","disclaimer":"","dealinfo":"For Specials and Packages Info go to: http:\/\/tinyurl.com\/37hnyud","expirationDate":"0000-00-00","postDate":"2011-10-21 18:31:42","showImage":null,"showLogo":"http:\/\/www.8coupons.com\/partners\/logo\/small\/Citysearch.png","up":"1","down":"0","DealTypeID":null,"categoryID":"4","subcategoryID":"72","lat":"38.9002","lon":"-77.0531","distance":"0.167229848658456","dealOriginalPrice":null,"dealPrice":null,"dealSavings":"","dealDiscountPercent":null},
{"affiliate":"yes","name":"One Washington Circle Hotel","address":"824 New Hampshire Ave NW","address2":"","storeID":"2341289","chainID":null,"totalDealsInThisStore":"1","homepage":null,"phone":"866.215.6641","state":"DC","city":"Washington","ZIP":"20037","URL":"http:\/\/www.8coupons.com\/apiout\/showdeal\/deal\/6302775\/1698021\/aff","storeURL":"http:\/\/www.8coupons.com\/discounts\/the-george-washington-university-inn-20037","dealSource":"citysearch.com","user":"Citysearch","userID":"64705","ID":"6302775","dealTitle":"Be Parked!","disclaimer":"","dealinfo":"Subject to availability.","expirationDate":"0000-00-00","postDate":"2011-10-21 18:31:42","showImage":null,"showLogo":"http:\/\/www.8coupons.com\/partners\/logo\/small\/Citysearch.png","up":null,"down":null,"DealTypeID":null,"categoryID":"4","subcategoryID":"72","lat":"38.9002","lon":"-77.0531","distance":"0.167229848658456","dealOriginalPrice":null,"dealPrice":null,"dealSavings":"","dealDiscountPercent":null},
{"affiliate":"yes","name":"The Institute of Multidimensional Medicine Medical Spa","address":"2311 M Street NW\nSuite 301, Suite 202","address2":"","storeID":"2615327","chainID":null,"totalDealsInThisStore":"3","homepage":"","phone":"202.429.3783","state":"DC","city":"Washington","ZIP":"20037","URL":"http:\/\/www.8coupons.com\/apiout\/showdeal\/deal\/7857101\/1698021\/aff","storeURL":"http:\/\/www.8coupons.com\/discounts\/the-institute-of-multidimensional-medicine-medical-spa-washington-20037","dealSource":"wusa9.com","user":"DataSphere","userID":"309539","ID":"7857101","dealTitle":"Grand Opening Spa Day","disclaimer":"Treat yourself to head-to-toe rejuvenation.  Organic Body Scrub Moor Body Wrap Classic Body Massage Organic Facial Value $380 Special $295 With this coupon only. Not valid with any other offer or prior purchase.","dealinfo":"","expirationDate":"2012-09-07","postDate":"2012-03-29 05:49:35","showImage":"http:\/\/images.secondspace.com\/p\/8Coupons\/20\/44\/19\/72\/5\/33_15_125_125.jpg","showLogo":"http:\/\/www.8coupons.com\/partners\/logo\/small\/datasphere.jpg","up":null,"down":null,"DealTypeID":"1","categoryID":"4","subcategoryID":"69","lat":"38.9053","lon":"-77.0506","distance":"0.269700827987544","dealOriginalPrice":null,"dealPrice":null,"dealSavings":"","dealDiscountPercent":null},
{"affiliate":"yes","name":"The Institute of Multidimensional Medicine Medical Spa","address":"2311 M Street NW\nSuite 301, Suite 202","address2":"","storeID":"2615327","chainID":null,"totalDealsInThisStore":"3","homepage":"","phone":"202.429.3783","state":"DC","city":"Washington","ZIP":"20037","URL":"http:\/\/www.8coupons.com\/apiout\/showdeal\/deal\/7895657\/1698021\/aff","storeURL":"http:\/\/www.8coupons.com\/discounts\/the-institute-of-multidimensional-medicine-medical-spa-washington-20037","dealSource":"wusa9.com","user":"DataSphere","userID":"309539","ID":"7895657","dealTitle":"Two Hour Spa Escape","disclaimer":"Start off your escape with a steam shower and let us smooth away your skin with a body brushing session before your treatments. Classic Massage Organic Facial Value $235 Special $195 With this coupon only. Not valid with any other offer or prior purchase.","dealinfo":"","expirationDate":"2012-09-09","postDate":"2012-03-29 05:49:55","showImage":"http:\/\/images.secondspace.com\/p\/8Coupons\/20\/44\/19\/72\/5\/33_15_125_125.jpg","showLogo":"http:\/\/www.8coupons.com\/partners\/logo\/small\/datasphere.jpg","up":null,"down":null,"DealTypeID":"1","categoryID":"4","subcategoryID":"69","lat":"38.9053","lon":"-77.0506","distance":"0.269700827987544","dealOriginalPrice":null,"dealPrice":null,"dealSavings":"","dealDiscountPercent":null},
{"affiliate":"yes","name":"The Institute of Multidimensional Medicine Medical Spa","address":"2311 M Street NW\nSuite 301, Suite 202","address2":"","storeID":"2615327","chainID":null,"totalDealsInThisStore":"3","homepage":"","phone":"202.429.3783","state":"DC","city":"Washington","ZIP":"20037","URL":"http:\/\/www.8coupons.com\/apiout\/showdeal\/deal\/7895663\/1698021\/aff","storeURL":"http:\/\/www.8coupons.com\/discounts\/the-institute-of-multidimensional-medicine-medical-spa-washington-20037","dealSource":"wusa9.com","user":"DataSphere","userID":"309539","ID":"7895663","dealTitle":"$100 off Initial 1 hour consultation","disclaimer":"New patients get $100 off initial consultation with Sakiliba Mines MD New patients only. Additional fees for products and further treatment apply. Not valid with other offers.","dealinfo":"","expirationDate":"2012-09-09","postDate":"2012-03-28 16:18:21","showImage":"http:\/\/images.secondspace.com\/p\/8Coupons\/20\/44\/19\/72\/5\/33_15_125_125.jpg","showLogo":"http:\/\/www.8coupons.com\/partners\/logo\/small\/datasphere.jpg","up":null,"down":null,"DealTypeID":"1","categoryID":"4","subcategoryID":"69","lat":"38.9053","lon":"-77.0506","distance":"0.269700827987544","dealOriginalPrice":null,"dealPrice":null,"dealSavings":"","dealDiscountPercent":null},
{"affiliate":"yes","name":"24HR D.C LOCKSMITH & CAR KEYS","address":"2526 L St NW","address2":"","storeID":"2500257","chainID":null,"totalDealsInThisStore":"1","homepage":null,"phone":"888.701.9127","state":"DC","city":"Washington","ZIP":"20037","URL":"http:\/\/www.8coupons.com\/apiout\/showdeal\/deal\/7068421\/1698021\/aff","storeURL":"http:\/\/www.8coupons.com\/discounts\/24hr-d-c-locksmith-car-keys-washington-20037","dealSource":"citysearch.com","user":"Citysearch","userID":"64705","ID":"7068421","dealTitle":"10% OFF Locksmith Services for Senior Citizens & Students","disclaimer":"","dealinfo":"Senior Citizens & Students only.","expirationDate":"0000-00-00","postDate":"2011-12-18 07:01:40","showImage":null,"showLogo":"http:\/\/www.8coupons.com\/partners\/logo\/small\/Citysearch.png","up":null,"down":null,"DealTypeID":null,"categoryID":"4","subcategoryID":"70","lat":"38.9038","lon":"-77.0544","distance":"0.271535152224169","dealOriginalPrice":null,"dealPrice":null,"dealSavings":"","dealDiscountPercent":null},
{"affiliate":"yes","name":"A1 ALL EMERGENCY LOCKSMITH","address":"2311 M st NW","address2":"","storeID":"2500241","chainID":null,"totalDealsInThisStore":"1","homepage":null,"phone":"877.740.7286","state":"DC","city":"Washington","ZIP":"20037","URL":"http:\/\/www.8coupons.com\/apiout\/showdeal\/deal\/7068347\/1698021\/aff","storeURL":"http:\/\/www.8coupons.com\/discounts\/a1-all-emergency-locksmith-washington-20037","dealSource":"citysearch.com","user":"Citysearch","userID":"64705","ID":"7068347","dealTitle":"$29 Service Call for Any Locksmith Call","disclaimer":"","dealinfo":"Mention this ad to receive the offer.","expirationDate":null,"postDate":"2011-12-18 07:01:25","showImage":null,"showLogo":"http:\/\/www.8coupons.com\/partners\/logo\/small\/Citysearch.png","up":null,"down":null,"DealTypeID":null,"categoryID":"4","subcategoryID":"70","lat":"38.9056","lon":"-77.0507","distance":"0.290753499334524","dealOriginalPrice":null,"dealPrice":null,"dealSavings":"","dealDiscountPercent":null},
{"affiliate":"yes","name":"A1 ALL EMERGENCY LOCKSMITH","address":"2311 M st NW","address2":"","storeID":"2500241","chainID":null,"totalDealsInThisStore":"1","homepage":null,"phone":"877.740.7286","state":"DC","city":"Washington","ZIP":"20037","URL":"http:\/\/www.8coupons.com\/apiout\/showdeal\/deal\/7068349\/1698021\/aff","storeURL":"http:\/\/www.8coupons.com\/discounts\/a1-all-emergency-locksmith-washington-20037","dealSource":"citysearch.com","user":"Citysearch","userID":"64705","ID":"7068349","dealTitle":"FREE Junk Car Removal - We Pay Top Dollar for Your Junk Car\/Truck\/Bus!","disclaimer":"","dealinfo":"Mention this ad to receive the offer.","expirationDate":null,"postDate":"2011-12-18 07:01:25","showImage":null,"showLogo":"http:\/\/www.8coupons.com\/partners\/logo\/small\/Citysearch.png","up":null,"down":null,"DealTypeID":null,"categoryID":"4","subcategoryID":"70","lat":"38.9056","lon":"-77.0507","distance":"0.290753499334524","dealOriginalPrice":null,"dealPrice":null,"dealSavings":"","dealDiscountPercent":null},
{"affiliate":"yes","name":"A -LOCKSMITH","address":"2311 M St NW","address2":"","storeID":"2500255","chainID":null,"totalDealsInThisStore":"1","homepage":null,"phone":"877.413.8815","state":"DC","city":"Washington","ZIP":"20037","URL":"http:\/\/www.8coupons.com\/apiout\/showdeal\/deal\/7068419\/1698021\/aff","storeURL":"http:\/\/www.8coupons.com\/discounts\/a-locksmith-washington-20037","dealSource":"citysearch.com","user":"Citysearch","userID":"64705","ID":"7068419","dealTitle":"FREE Towing with Any Collision Repair at Our Shop!","disclaimer":"","dealinfo":"Mention this ad to receive the offer.","expirationDate":null,"postDate":"2011-12-18 07:01:39","showImage":null,"showLogo":"http:\/\/www.8coupons.com\/partners\/logo\/small\/Citysearch.png","up":null,"down":null,"DealTypeID":null,"categoryID":"4","subcategoryID":"70","lat":"38.9056","lon":"-77.0507","distance":"0.290753499334524","dealOriginalPrice":null,"dealPrice":null,"dealSavings":"","dealDiscountPercent":null},
{"affiliate":"yes","name":"24\/7 AUTO LOCK OUT & KEYS REPROGRAM","address":"2643 Virginia Ave NW","address2":"","storeID":"2500245","chainID":null,"totalDealsInThisStore":"1","homepage":null,"phone":"877.409.6213","state":"DC","city":"Washington","ZIP":"20037","URL":"http:\/\/www.8coupons.com\/apiout\/showdeal\/deal\/7068365\/1698021\/aff","storeURL":"http:\/\/www.8coupons.com\/discounts\/24-7-auto-lock-out-keys-reprogram-washington-20037","dealSource":"citysearch.com","user":"Citysearch","userID":"64705","ID":"7068365","dealTitle":"10% OFF Auto Computer Diagnostics for any Auto Repair","disclaimer":"","dealinfo":"Coupon required.","expirationDate":null,"postDate":"2011-12-18 07:01:32","showImage":null,"showLogo":"http:\/\/www.8coupons.com\/partners\/logo\/small\/Citysearch.png","up":null,"down":null,"DealTypeID":null,"categoryID":"4","subcategoryID":"70","lat":"38.9001","lon":"-77.0556","distance":"0.293839451121457","dealOriginalPrice":null,"dealPrice":null,"dealSavings":"","dealDiscountPercent":null},
{"affiliate":"yes","name":"24\/7 AUTO LOCK OUT & KEYS REPROGRAM","address":"2643 Virginia Ave NW","address2":"","storeID":"2500245","chainID":null,"totalDealsInThisStore":"1","homepage":null,"phone":"877.409.6213","state":"DC","city":"Washington","ZIP":"20037","URL":"http:\/\/www.8coupons.com\/apiout\/showdeal\/deal\/7068369\/1698021\/aff","storeURL":"http:\/\/www.8coupons.com\/discounts\/24-7-auto-lock-out-keys-reprogram-washington-20037","dealSource":"citysearch.com","user":"Citysearch","userID":"64705","ID":"7068369","dealTitle":"FREE Towing with Any Collision Repair at Our Shop!","disclaimer":"","dealinfo":"Mention this ad to receive the offer.","expirationDate":null,"postDate":"2011-12-18 07:01:32","showImage":null,"showLogo":"http:\/\/www.8coupons.com\/partners\/logo\/small\/Citysearch.png","up":null,"down":null,"DealTypeID":null,"categoryID":"4","subcategoryID":"70","lat":"38.9001","lon":"-77.0556","distance":"0.293839451121457","dealOriginalPrice":null,"dealPrice":null,"dealSavings":"","dealDiscountPercent":null},
{"affiliate":"yes","name":"A-A-ANY WHERE LOCKSMITH& KEYS MADE","address":"2150 M St NW","address2":"","storeID":"2500247","chainID":null,"totalDealsInThisStore":"1","homepage":null,"phone":"877.890.1813","state":"DC","city":"Washington","ZIP":"20037","URL":"http:\/\/www.8coupons.com\/apiout\/showdeal\/deal\/7068373\/1698021\/aff","storeURL":"http:\/\/www.8coupons.com\/discounts\/a-a-any-where-locksmith-keys-made-washington-20037","dealSource":"citysearch.com","user":"Citysearch","userID":"64705","ID":"7068373","dealTitle":"$29 Service Call for Any Locksmith Call","disclaimer":"","dealinfo":"Mention this ad to receive the offer.","expirationDate":null,"postDate":"2011-12-18 07:01:33","showImage":null,"showLogo":"http:\/\/www.8coupons.com\/partners\/logo\/small\/Citysearch.png","up":null,"down":null,"DealTypeID":null,"categoryID":"4","subcategoryID":"70","lat":"38.9053","lon":"-77.048","distance":"0.298878023174771","dealOriginalPrice":null,"dealPrice":null,"dealSavings":"","dealDiscountPercent":null},
{"affiliate":"yes","name":"A-A-ANY WHERE LOCKSMITH& KEYS MADE","address":"2150 M St NW","address2":"","storeID":"2500247","chainID":null,"totalDealsInThisStore":"1","homepage":null,"phone":"877.890.1813","state":"DC","city":"Washington","ZIP":"20037","URL":"http:\/\/www.8coupons.com\/apiout\/showdeal\/deal\/7068379\/1698021\/aff","storeURL":"http:\/\/www.8coupons.com\/discounts\/a-a-any-where-locksmith-keys-made-washington-20037","dealSource":"citysearch.com","user":"Citysearch","userID":"64705","ID":"7068379","dealTitle":"FREE Towing with Any Collision Repair at Our Shop!","disclaimer":"","dealinfo":"Mention this ad to receive the offer.","expirationDate":null,"postDate":"2011-12-18 07:01:33","showImage":null,"showLogo":"http:\/\/www.8coupons.com\/partners\/logo\/small\/Citysearch.png","up":null,"down":null,"DealTypeID":null,"categoryID":"4","subcategoryID":"70","lat":"38.9053","lon":"-77.048","distance":"0.298878023174771","dealOriginalPrice":null,"dealPrice":null,"dealSavings":"","dealDiscountPercent":null}]